City_ID,City,Lat,Lng,Max Temp,Humidity,Cloudiness,Wind Speed,Country,Date
0,adamstown,-25.066,-130.1015,21.02,74,43,6.73,PN,1722731261
1,cam pha mines,21.0167,107.3,27.34,85,43,3.94,VN,1722731352
2,punta arenas,-53.15,-70.9167,2.06,75,100,5.14,CL,1722731314
3,margaret river,-33.95,115.0667,9.76,92,3,3.55,AU,1722731055
4,kavaratti,10.5669,72.642,27.71,79,100,5.87,IN,1722731355
5,chahuites,16.2833,-94.1833,28.82,80,66,1.68,MX,1722731357
6,lincoln,40.8,-96.667,34.38,37,0,2.06,US,1722731137
7,waitangi,-43.9535,-176.5597,8.79,87,76,3.13,NZ,1722731225
8,newman,37.3138,-121.0208,41.13,14,16,1.5,US,1722731360
9,kagizman,40.1567,43.1342,18.15,75,40,1.73,TR,1722731361
10,port-aux-francais,-49.35,70.2167,2.46,86,35,8.58,TF,1722731236
11,cabo san lucas,22.8909,-109.9124,35.61,48,20,8.75,MX,1722731364
12,butajira,8.1167,38.3667,13.95,90,98,1.63,ET,1722731365
13,ta`u,-14.2336,-169.5144,26.63,63,73,3.53,AS,1722731331
14,kingston,17.997,-76.7936,30.53,74,20,5.66,JM,1722731125
15,oriximina,-1.7656,-55.8661,28.77,48,5,1.26,BR,1722731070
16,khandyga,62.6667,135.6,16.93,51,88,1.09,RU,1722731369
17,blackmans bay,-43.0167,147.3167,10.07,87,37,0.45,AU,1722731268
18,tofol,5.3248,163.0078,28.87,73,70,4.25,FM,1722731373
19,magadan,59.5667,150.8,14.86,52,4,1.01,RU,1722731374
20,ishigaki,24.3448,124.1572,31.07,74,40,1.54,JP,1722731375
21,st. john's,47.5649,-52.7093,19.66,80,40,8.75,CA,1722731276
22,invercargill,-46.4,168.35,8.9,74,79,2.68,NZ,1722731377
23,reggane,26.7158,0.1714,36.17,8,0,4.96,DZ,1722731379
24,kargopol',61.5071,38.9456,14.3,98,100,1.67,RU,1722731380
25,baoro,5.6667,15.9667,19.44,93,100,1.64,CF,1722731381
26,chervona sloboda,49.3789,32.1464,18.71,89,87,4.89,UA,1722731382
27,dauphin,51.1494,-100.0502,21.08,46,0,3.09,CA,1722731383
28,georgetown,5.4112,100.3354,26.96,74,20,1.03,MY,1722731083
29,puerto natales,-51.7236,-72.4875,1.6,99,100,1.26,CL,1722731309
30,albany,42.6001,-73.9662,24.77,72,81,1.52,US,1722731218
31,kodiak,57.79,-152.4072,13.73,77,100,6.69,US,1722731388
32,klyuchi,52.2667,79.1667,18.54,82,19,3.4,RU,1722731042
33,grytviken,-54.2811,-36.5092,-5.13,91,100,3.75,GS,1722731251
34,tromso,69.6496,18.957,13.01,82,73,1.03,NO,1722731097
35,bethel,41.3712,-73.414,23.84,94,0,1.54,US,1722731305
36,jamestown,42.097,-79.2353,23.8,80,0,1.54,US,1722730934
37,wailua homesteads,22.0669,-159.378,27.44,73,40,4.63,US,1722731395
38,hawaiian paradise park,19.5933,-154.9731,26.52,84,100,1.54,US,1722731248
39,la grande,45.3246,-118.0877,30.01,22,100,4.87,US,1722731397
40,puerto ayora,-0.7393,-90.3518,19.75,90,93,1.34,EC,1722731355
41,belyy yar,53.6039,91.3903,18.94,94,40,2.0,RU,1722731162
42,kapuskasing,49.4169,-82.4331,23.05,53,20,3.6,CA,1722731401
43,havelberg,52.8309,12.0755,19.98,97,100,2.54,DE,1722731402
44,collie,-33.3667,116.15,9.86,65,1,1.38,AU,1722731403
45,cidreira,-30.1811,-50.2056,18.47,82,10,1.94,BR,1722731406
46,gadzhiyevo,69.2551,33.3362,9.22,93,12,2.92,RU,1722731407
47,paracatu,-17.2222,-46.8747,21.25,53,88,2.98,BR,1722731408
48,port blair,11.6667,92.75,24.02,94,75,1.03,IN,1722731409
49,biasca,46.3597,8.9697,23.0,81,49,3.15,CH,1722731410
50,shiprock,36.7855,-108.687,35.19,21,75,5.63,US,1722731412
51,bollnas,61.3482,16.3946,12.14,97,9,0.93,SE,1722731413
52,talnakh,69.4865,88.3972,14.49,63,71,3.15,RU,1722731380
53,isafjordur,66.0755,-23.124,7.48,95,100,5.58,IS,1722731415
54,laguna,38.421,-121.4238,40.64,18,0,4.12,US,1722731161
55,teguise,29.0605,-13.564,21.12,78,20,10.8,ES,1722731417
56,longyearbyen,78.2186,15.6401,9.91,100,75,3.6,SJ,1722731419
57,lodeynoye pole,60.726,33.5531,12.83,96,11,1.06,RU,1722731420
58,al jawf,29.5,38.75,25.45,30,22,4.3,SA,1722731339
59,mabaruma,8.2,-59.7833,22.44,100,89,0.87,GY,1722731422
60,del rio,29.3627,-100.8968,41.06,22,40,4.63,US,1722731423
61,ancud,-41.8697,-73.8203,8.34,92,100,4.39,CL,1722731424
62,douz,33.4663,9.0203,29.15,56,0,9.17,TN,1722731426
63,kamennogorsk,60.9545,29.1339,14.2,94,98,1.25,RU,1722731427
64,hermanus,-34.4187,19.2345,11.98,81,81,10.09,ZA,1722731242
65,imam qasim,32.298,44.6828,32.27,21,0,5.18,IQ,1722731429
66,anadyr,64.75,177.4833,9.28,87,100,8.94,RU,1722731430
67,tabalah,19.95,42.4,29.58,52,100,6.03,SA,1722731431
68,nar'yan-mar,67.6713,53.087,8.48,82,100,7.55,RU,1722731434
69,yellowknife,62.456,-114.3525,21.34,48,75,3.09,CA,1722731320
70,codrington,-38.2667,141.9667,10.84,70,100,3.64,AU,1722731436
71,soto la marina,23.7667,-98.2167,27.03,80,28,3.88,MX,1722731437
72,nemuro,43.3236,145.575,18.34,93,73,4.64,JP,1722731222
73,thompson,55.7435,-97.8558,19.09,42,75,2.06,CA,1722731379
74,fisterra,42.9049,-9.2629,18.19,89,0,4.61,ES,1722731441
75,san luis de la loma,17.2706,-100.8939,27.18,78,100,0.48,MX,1722731442
76,fond parisien,18.5058,-71.9767,26.88,73,86,2.03,HT,1722731443
77,vilyuchinsk,52.9306,158.4028,21.15,66,97,0.81,RU,1722731367
78,"laikit, laikit ii (dimembe)",1.4792,124.9735,25.47,83,40,1.03,ID,1722731445
79,lihue,21.9789,-159.3672,27.77,75,40,4.63,US,1722731447
80,minas de marcona,-15.2119,-75.1103,10.98,87,20,6.76,PE,1722731284
81,edinburgh of the seven seas,-37.0676,-12.3116,12.33,80,97,15.13,SH,1722731244
82,petropavlovsk-kamchatsky,53.0452,158.6483,20.33,40,0,2.0,RU,1722731450
83,tchintabaraden,15.8969,5.7985,25.86,74,100,2.78,NE,1722731451
84,tarnogskiy gorodok,60.4997,43.5761,12.27,98,45,2.04,RU,1722731452
85,atafu village,-8.5421,-172.5159,28.06,77,45,6.32,TK,1722730951
86,nouadhibou,20.931,-17.0347,23.99,88,9,1.54,MR,1722731455
87,matipo,-20.2839,-42.3411,16.81,92,39,2.32,BR,1722731456
88,ribeira grande,38.5167,-28.7,22.1,88,2,1.34,PT,1722731308
89,howard springs,-12.497,131.047,25.95,89,100,3.92,AU,1722731458
90,camarinas,43.1311,-9.1817,18.29,89,1,3.64,ES,1722731459
91,kamloops,50.6665,-120.3192,35.87,22,40,5.66,CA,1722731461
92,bredasdorp,-34.5322,20.0403,7.67,92,89,3.47,ZA,1722731273
93,nogliki,51.8333,143.1667,17.24,50,100,3.61,RU,1722731463
94,ushuaia,-54.8,-68.3,-1.19,64,100,4.63,AR,1722731214
95,enewetak,11.3474,162.3373,28.32,76,90,1.69,MH,1722731465
96,saurimo,-9.6608,20.3916,16.37,31,85,2.14,AO,1722731466
97,san ignacio de velasco,-16.3667,-60.95,24.74,39,0,2.0,BO,1722731468
98,iqaluit,63.7506,-68.5145,4.85,80,40,8.75,CA,1722731310
99,ilulissat,69.2167,-51.1,11.01,50,28,0.0,GL,1722731051
100,port augusta,-32.5,137.7667,13.16,69,100,3.29,AU,1722731219
101,recani,31.2846,-4.2688,32.58,8,3,1.5,MA,1722731472
102,rundu,-17.9333,19.7667,14.11,26,0,1.92,NA,1722731473
103,arraial do cabo,-22.9661,-42.0278,22.32,83,0,11.53,BR,1722731046
104,colonia,50.9333,6.95,19.47,84,40,2.57,DE,1722731386
105,zinapecuaro,19.8667,-100.8167,15.51,90,100,1.11,MX,1722731477
106,tiksi,71.6872,128.8694,8.17,72,100,1.11,RU,1722731478
107,malango,-2.9627,119.9001,22.81,75,100,1.16,ID,1722731479
108,bilibino,68.0546,166.4372,8.56,65,100,0.99,RU,1722731223
109,ambon,-3.6954,128.1814,26.6,95,75,2.57,ID,1722731482
110,stanley,54.868,-1.6985,11.51,90,0,1.54,GB,1722731034
111,egilsstadir,65.2653,-14.3948,7.95,93,75,3.6,IS,1722731182
112,tobelo,1.7284,128.0095,27.82,78,19,1.18,ID,1722731485
113,basse-terre,16.1667,-61.6667,25.58,89,40,2.06,GP,1722731486
114,kolonia,50.9333,6.95,19.97,84,40,2.57,DE,1722731487
115,port elizabeth,-33.918,25.5701,20.16,21,0,2.57,ZA,1722731222
116,coyhaique,-45.5752,-72.0662,4.34,97,98,2.68,CL,1722731412
117,cadale,2.7603,46.3222,24.37,85,67,7.32,SO,1722731491
118,griffith,41.5284,-87.4237,28.48,75,0,3.09,US,1722731493
119,cassilandia,-19.1133,-51.7342,22.11,37,0,2.93,BR,1722731494
120,gulsehir,38.7459,34.6252,17.18,48,0,0.0,TR,1722731495
121,touros,-5.1989,-35.4608,23.13,78,0,5.92,BR,1722731496
122,fort bragg,35.139,-79.006,23.91,91,75,2.06,US,1722731498
123,dawson creek,55.7666,-120.2362,26.8,14,0,2.57,CA,1722731499
124,saipan,15.1355,145.701,30.39,74,75,6.17,MP,1722731500
125,chonchi,-42.6128,-73.8092,7.84,96,100,1.57,CL,1722731501
126,haiku-pauwela,20.9219,-156.3051,27.92,75,40,11.32,US,1722731343
127,labytnangi,66.6572,66.4183,11.86,84,100,9.77,RU,1722731503
128,la gi,10.6667,107.7833,27.5,81,42,3.53,VN,1722731505
129,saint cloud,45.5608,-94.1625,27.0,96,99,5.82,US,1722731506
130,vadso,70.0744,29.7487,10.49,87,100,4.12,NO,1722731215
131,kayankulam,9.1833,76.5,24.52,92,100,2.89,IN,1722731508
132,fyodorovka,53.6314,62.7078,12.66,94,10,3.23,KZ,1722731509
133,carbonear,47.7332,-53.2148,18.89,81,99,4.58,CA,1722731510
134,i-n-salah,27.1935,2.4607,35.12,9,0,3.81,DZ,1722731146
135,puerto armuelles,8.2833,-82.8667,25.05,86,100,2.68,PA,1722731513
136,senanga,-16.1167,23.2667,13.89,20,0,2.73,ZM,1722731411
137,tolanaro,-25.0319,46.9987,17.04,94,20,3.09,MG,1722731224
138,kuvshinovo,57.0295,34.1725,11.85,98,75,1.76,RU,1722731516
139,saint-philippe,-21.3585,55.7679,18.77,75,0,1.53,RE,1722731517
140,xiahu,26.6106,119.9483,28.68,84,0,1.03,CN,1722731519
141,terrace,54.5163,-128.6035,30.95,20,20,3.09,CA,1722731520
142,susuman,62.7833,148.1667,13.57,43,8,1.76,RU,1722731152
143,port saint john's,-31.6229,29.5448,18.66,30,66,3.85,ZA,1722731428
144,katsuura,35.1333,140.3,26.79,77,12,1.82,JP,1722731255
145,santa marta,11.2408,-74.199,28.83,77,40,1.79,CO,1722731375
146,kapa'a,22.0752,-159.319,28.18,70,40,4.63,US,1722731031
147,alo,6.5486,4.2686,23.88,92,34,3.03,NG,1722731571
148,sisimiut,66.9395,-53.6735,6.29,85,3,3.03,GL,1722731630
149,yerofey pavlovich,53.9667,121.9667,15.09,67,100,3.65,RU,1722731631
150,qaqortoq,60.7167,-46.0333,7.52,78,47,1.4,GL,1722731360
151,socorro,31.6546,-106.3033,35.92,23,75,7.2,US,1722731633
152,kogota,38.55,141.05,27.94,63,0,0.58,JP,1722731635
153,ca mau,9.1769,105.15,26.34,87,76,1.38,VN,1722731190
154,yuzhno-kurilsk,44.0306,145.8556,20.17,88,98,3.14,RU,1722731638
155,utrik,11.2278,169.8474,28.39,76,4,3.85,MH,1722731240
156,sierra grande,-41.606,-65.3557,9.37,37,75,5.98,AR,1722731641
157,copiapo,-27.3667,-70.3333,14.68,64,57,0.54,CL,1722731642
158,avarua,-21.2078,-159.775,24.03,53,100,3.6,CK,1722731643
159,olonkinbyen,70.9221,-8.7187,5.24,95,94,3.8,SJ,1722731230
160,brisas de zicatela,15.8369,-97.0419,26.11,87,100,2.07,MX,1722731645
161,keflavik,64.0049,-22.5624,11.95,87,75,5.14,IS,1722731461
162,cogealac,44.55,28.5667,21.14,69,0,3.66,RO,1722731648
163,geraldton,-28.7667,114.6,9.23,81,0,5.66,AU,1722731219
164,santa rosa de rio primero,-31.1523,-63.4019,14.48,56,100,2.16,AR,1722731651
165,tashtyp,52.7939,89.8983,19.26,91,75,2.45,RU,1722731652
166,ola,59.5833,151.2833,15.78,48,0,2.04,RU,1722731653
167,gaspe,48.8334,-64.4819,22.12,88,75,3.09,CA,1722731655
168,selibaby,15.159,-12.1829,27.11,75,100,3.34,MR,1722731656
169,sitka,57.0531,-135.33,17.94,63,40,6.17,US,1722731209
170,sinabang,2.4803,96.3801,24.86,91,100,4.19,ID,1722731318
171,san juan,-31.5375,-68.5364,13.83,23,25,1.94,AR,1722731403
172,alofi,-19.0595,-169.9187,26.94,69,40,3.6,NU,1722731660
173,antsiranana,-12.2787,49.2917,20.58,61,2,6.02,MG,1722731662
174,hovd,48.0056,91.6419,22.52,34,0,3.6,MN,1722731663
175,nadym,65.5333,72.5167,17.88,89,100,4.97,RU,1722731664
176,yutan,28.25,112.55,30.75,70,0,4.73,CN,1722731665
177,vila franca do campo,37.7167,-25.4333,22.23,84,54,0.98,PT,1722731395
178,taulaga,-11.0553,-171.0883,27.51,71,96,5.46,AS,1722731190
179,tura,25.5198,90.2201,23.41,97,91,1.97,IN,1722731326
180,kidal,18.4411,1.4078,29.44,49,54,6.7,ML,1722731142
181,el higo,21.7667,-98.4667,27.44,83,8,2.88,MX,1722731671
182,namtsy,62.7161,129.6658,21.19,34,5,2.04,RU,1722731596
183,badger,64.8,-147.5333,14.95,81,100,3.09,US,1722731673
184,sindangan,8.2376,122.9974,26.7,67,100,1.23,PH,1722731674
185,papatowai,-46.5619,169.4708,9.61,57,76,3.01,NZ,1722731252
186,nong khae,14.3406,100.8673,27.2,88,100,2.05,TH,1722731677
187,al wajh,26.2455,36.4525,31.97,70,0,1.54,SA,1722731678
188,pakuranga,-36.8833,174.9167,15.14,68,100,2.24,NZ,1722731681
189,pago pago,-14.2781,-170.7025,30.55,62,40,4.63,AS,1722731683
190,papao,-17.75,-149.55,26.82,75,97,6.99,PF,1722731684
191,kone,-21.0595,164.8658,22.26,43,0,5.04,NC,1722731167
192,iskateley,67.6803,53.1512,8.21,84,83,7.43,RU,1722731203
193,acarau,-2.8856,-40.12,25.5,82,6,8.36,BR,1722731687
194,kununurra,-15.7667,128.7333,24.99,53,0,0.51,AU,1722731688
195,mount gambier,-37.8333,140.7667,11.37,64,100,1.83,AU,1722731689
196,shimoda,34.6667,138.95,30.2,69,1,3.07,JP,1722731691
197,qurayyat,31.3318,37.3428,23.1,53,0,0.0,SA,1722731692
198,mtambile,-5.3833,39.7,23.77,76,24,4.97,TZ,1722731693
199,mingshui,36.7167,117.5,31.55,74,78,6.24,CN,1722731694
200,opochka,56.7105,28.6617,11.84,98,5,1.44,RU,1722731695
201,kutum,14.2,24.6667,23.29,75,100,5.15,SD,1722731435
202,luchegorsk,46.4764,134.2569,21.44,83,100,1.26,RU,1722731698
203,udachny,66.4167,112.4,20.42,44,57,3.69,RU,1722731699
204,katsuren-haebaru,26.3369,127.8719,32.21,76,40,5.14,JP,1722731700
205,outjo,-20.1167,16.15,13.66,47,0,3.66,NA,1722731702
206,barcelos,41.5388,-8.6151,22.14,74,0,1.01,PT,1722731051
207,ingeniero guillermo n. juarez,-23.9,-61.85,25.43,44,52,8.66,AR,1722731705
208,kavieng,-2.5744,150.7967,28.28,75,74,7.02,PG,1722731395
209,port mathurin,-19.6833,63.4167,21.7,72,97,4.29,MU,1722731707
210,west island,-12.1568,96.8225,25.99,78,47,4.12,CC,1722731708
211,san patricio,28.017,-97.5169,33.08,63,0,6.25,US,1722731457
212,lakatoro,-16.0999,167.4164,25.01,71,78,5.37,VU,1722731710
213,tazovsky,67.4667,78.7,13.18,77,100,5.23,RU,1722731505
214,broome,42.2506,-75.833,23.21,95,0,0.0,US,1722731713
215,san andres,12.5847,-81.7006,29.01,79,20,2.57,CO,1722731714
216,crane,31.3974,-102.3501,31.41,35,100,2.79,US,1722731715
217,iwon-up,40.3231,128.6553,24.37,90,95,2.84,KP,1722731716
218,petawawa,45.9001,-77.3328,24.21,75,91,0.69,CA,1722731717
219,khandud,36.9513,72.318,17.43,57,13,2.79,AF,1722731719
220,aripuana,-9.1667,-60.6333,26.46,42,100,1.22,BR,1722731720
221,goroka,-6.0834,145.3873,23.0,66,66,1.14,PG,1722731721
222,marka,1.7159,44.7717,24.06,83,100,6.8,SO,1722731722
223,praia da vitoria,38.7333,-27.0667,23.2,83,0,1.8,PT,1722731724
224,hamilton,39.1834,-84.5333,28.47,64,20,4.63,US,1722731725
225,vilyuysk,63.7553,121.6247,20.91,40,17,1.68,RU,1722731727
226,flying fish cove,-10.4217,105.6791,25.82,83,100,5.66,CX,1722731327
227,adre,13.4667,22.2,23.96,79,100,2.61,TD,1722731729
228,kudahuvadhoo,2.6708,72.8944,27.91,71,62,1.03,MV,1722731340
229,oranjemund,-28.55,16.4333,14.43,77,77,6.98,NA,1722731336
230,hadibu,12.65,54.0333,25.51,82,28,10.34,YE,1722731153
231,pleasanton,37.6624,-121.8747,35.19,39,0,6.69,US,1722731735
232,mil'kovo,55.6078,37.7956,16.3,88,86,2.29,RU,1722731570
233,lebu,-37.6167,-73.65,9.19,93,98,3.67,CL,1722731186
234,tarawa,1.419,172.984,28.59,69,8,5.49,KI,1722731738
235,college,64.8569,-147.8028,13.97,84,100,0.0,US,1722731397
236,remire-montjoly,4.9167,-52.2667,25.02,94,0,1.54,GF,1722731740
237,guarapuava,-25.3953,-51.4581,14.49,70,0,1.63,BR,1722731742
238,yaring,6.8662,101.3689,26.83,89,81,2.09,TH,1722731223
239,dolbeau-mistassini,48.8763,-72.212,25.26,66,100,1.46,CA,1722731744
240,salekhard,66.53,66.6019,11.49,87,100,9.79,RU,1722731746
241,ust-nera,64.5667,143.2,15.76,45,65,3.04,RU,1722731536
242,coquimbo,-29.9533,-71.3436,12.21,76,0,1.03,CL,1722731341
243,berriane,32.8265,3.7669,33.45,24,0,4.46,DZ,1722731750
244,page,36.9147,-111.4558,34.88,24,0,5.81,US,1722731751
245,taunggyi,20.7833,97.0333,20.44,92,100,1.58,MM,1722731752
246,nuuk,64.1835,-51.7216,2.34,100,100,1.54,GL,1722731573
247,sosnogorsk,63.6023,53.8817,15.55,97,100,2.73,RU,1722731755
248,berezovyy,51.6667,135.7,23.38,46,27,1.39,RU,1722731756
249,kogalym,62.2654,74.4791,19.1,82,100,2.46,RU,1722731408
250,torghay,49.6339,63.4981,23.33,37,93,2.01,KZ,1722731758
251,kerch,45.3583,36.4758,24.11,62,5,3.97,UA,1722731759
252,soure,-0.7167,-48.5233,26.76,78,10,4.99,BR,1722731761
253,hobyo,5.3505,48.5268,24.39,86,100,9.93,SO,1722731762
254,alotau,-10.3069,150.4462,24.97,79,95,2.95,PG,1722731763
255,labrador city,52.9463,-66.9114,17.88,80,75,3.13,CA,1722731764
256,ararat,39.8317,44.7049,21.19,63,0,2.41,AM,1722731671
257,ekuvukeni,-28.4675,30.1551,12.64,33,87,1.69,ZA,1722731766
258,santiago de cao,-7.9589,-79.2392,17.07,88,64,3.09,PE,1722731347
259,broken hill,-31.95,141.4333,14.38,35,100,4.34,AU,1722731769
260,wuxi,31.5689,120.2886,33.31,65,98,3.79,CN,1722731770
261,nantucket,41.2835,-70.0995,25.56,98,9,8.4,US,1722731772
262,tosontsengel,48.7567,98.2839,16.92,40,0,0.78,MN,1722731773
263,boyolangu,-8.1181,111.8935,23.52,91,61,0.61,ID,1722731392
264,coahuayana de hidalgo,18.7,-103.6583,27.06,85,100,1.43,MX,1722731776
265,corbu,44.3833,28.65,21.62,88,0,2.57,RO,1722731777
266,nova sintra,14.8667,-24.7167,26.31,77,49,1.94,CV,1722731778
267,aykhal,66.0,111.5,17.12,52,100,2.79,RU,1722731779
268,margate,51.3813,1.3862,16.5,83,100,3.6,GB,1722731266
269,hithadhoo,-0.6,73.0833,27.37,78,88,2.25,MV,1722731352
270,sanctuary point,-35.1114,150.629,16.66,59,100,1.91,AU,1722731782
271,afaahiti,-17.75,-149.2833,25.93,73,80,5.6,PF,1722731254
272,vorgashor,67.5833,63.95,10.69,72,94,7.04,RU,1722731107
273,shengli,37.4564,118.4856,32.3,68,13,5.04,CN,1722731786
274,san clemente del tuyu,-36.3569,-56.7235,12.14,74,0,5.99,AR,1722731787
275,ardakan,32.31,54.0175,34.25,16,27,2.42,IR,1722731788
276,kiunga,-6.1219,141.2906,23.44,91,100,2.08,PG,1722731789
277,handan,36.6006,114.4678,30.23,75,100,1.17,CN,1722731790
278,melfort,52.8667,-104.6177,17.07,67,1,2.57,CA,1722731792
279,apolinario saravia,-24.4328,-63.9954,20.29,38,49,6.67,AR,1722731793
280,nova russas,-4.7067,-40.5631,24.69,40,1,1.07,BR,1722731794
281,bamyan,34.75,67.25,10.27,51,0,2.3,AF,1722731795
282,mount isa,-20.7333,139.5,21.87,46,0,8.23,AU,1722731796
283,hastings,50.8552,0.5729,15.96,76,100,4.47,GB,1722731798
284,chibougamau,49.9168,-74.3659,20.79,60,20,4.12,CA,1722731799
285,chayan,43.0297,69.3772,25.11,24,0,4.5,KZ,1722731800
286,kailua-kona,19.6406,-155.9956,30.15,76,0,6.69,US,1722731801
287,kalmunai,7.4167,81.8167,26.5,76,6,1.48,LK,1722731802
288,kaga bandoro,6.9896,19.1874,20.94,98,100,2.51,CF,1722731803
289,usogorsk,63.4106,48.6872,15.97,82,100,3.12,RU,1722731804
290,luau,-10.7073,22.2247,17.27,31,71,1.89,AO,1722731806
291,akjoujt,19.6969,-14.4164,29.2,57,66,6.04,MR,1722731807
292,bansi,27.1833,82.9333,25.95,87,58,8.86,IN,1722731808
293,hlusk,52.903,28.6845,15.43,83,81,1.58,BY,1722731809
294,shingu,33.7333,135.9833,30.64,68,7,2.33,JP,1722731810
295,pasuquin,18.3328,120.6177,26.97,100,75,0.0,PH,1722731811
296,ponta delgada,37.7333,-25.6667,22.4,83,20,2.57,PT,1722731813
297,port lincoln,-34.7333,135.8667,12.43,70,100,3.84,AU,1722731814
298,ascencion de guarayos,-15.8963,-63.1881,26.96,45,43,1.28,BO,1722731815
299,sangin,32.0728,64.8359,29.96,34,9,2.07,AF,1722731816
300,sola,-13.8833,167.55,25.37,83,100,6.17,VU,1722731817
301,mocimboa,-11.3167,40.35,20.09,91,100,3.19,MZ,1722731818
302,canutama,-6.5339,-64.3831,29.14,49,98,0.57,BR,1722731820
303,maintirano,-18.0667,44.0167,19.57,84,23,3.4,MG,1722731821
304,bikenibeu village,1.3673,173.1241,28.52,69,38,5.71,KI,1722731373
305,ushachy,55.1786,28.6035,11.62,96,0,2.32,BY,1722731823
306,astorga,-23.2325,-51.6656,25.13,41,0,3.43,BR,1722731824
307,banda aceh,5.5577,95.3222,26.92,74,100,4.37,ID,1722731825
308,koppies,-27.2418,27.5742,13.34,35,0,4.06,ZA,1722731827
309,turochak,52.2576,87.1224,18.31,95,95,0.83,RU,1722731828
310,kwolla,8.9333,9.2833,22.42,89,100,1.41,NG,1722731829
311,new albany,38.2856,-85.8241,29.17,73,0,2.06,US,1722731571
312,turkestan,43.3333,68.25,24.92,28,0,0.52,KZ,1722731833
313,mogok,22.9167,96.5,18.38,99,100,1.51,MM,1722731834
314,huarmey,-10.0681,-78.1522,17.23,85,2,3.51,PE,1722731835
315,bodaybo,57.8506,114.1933,15.93,93,100,0.76,RU,1722731836
316,swift current,50.2834,-107.8014,27.45,29,20,8.23,CA,1722731837
317,tughyl,47.7252,84.2063,22.54,56,0,6.22,KZ,1722731838
318,pisco,-13.7,-76.2167,17.03,82,20,4.63,PE,1722731595
319,shakhtinsk,49.71,72.5872,19.82,45,100,4.34,KZ,1722731841
320,ha'il,27.5219,41.6907,28.01,24,0,1.03,SA,1722731842
321,darwin,-12.4611,130.8418,25.99,69,75,4.63,AU,1722731405
322,whitehorse,60.7161,-135.0538,18.43,47,75,3.6,CA,1722731844
323,moose jaw,50.4001,-105.5344,26.14,31,97,4.63,CA,1722731845
324,palmer,42.1584,-72.3287,24.9,78,97,0.57,US,1722731846
325,kuala tungkal,-0.8167,103.4667,25.39,87,62,3.71,ID,1722731847
326,cabedelo,-6.9811,-34.8339,23.37,79,3,5.09,BR,1722731849
327,salalah,17.0151,54.0924,25.05,94,75,1.54,OM,1722731850
328,mahina,-17.5065,-149.489,26.87,65,100,7.72,PF,1722731440
329,loango,-4.6719,11.8312,20.29,85,14,2.54,CG,1722731852
330,yima,34.7381,111.8839,25.22,81,100,2.53,CN,1722731853
331,mikuni,36.2171,136.1519,30.95,70,5,3.02,JP,1722731854
332,cill airne,52.05,-9.5167,12.85,86,100,2.16,IE,1722731856
333,lompoc,34.6391,-120.4579,24.36,72,0,5.66,US,1722731662
334,nhamunda,-2.1861,-56.7131,26.44,54,28,1.22,BR,1722731858
335,alesund,62.4723,6.1549,15.56,94,75,2.06,NO,1722731859
336,xilin hot,43.9667,116.0333,21.56,70,91,4.21,CN,1722731860
337,fort st. john,56.2499,-120.8529,24.94,20,75,0.0,CA,1722731776
338,la passe,45.5549,-0.8967,17.13,86,8,2.62,FR,1722731433
339,dudinka,69.4058,86.1778,13.37,61,0,6.56,RU,1722731864
340,pacific grove,36.6177,-121.9166,26.79,86,0,3.6,US,1722731274
341,macapa,0.0389,-51.0664,28.99,79,40,3.6,BR,1722731654
342,palenque,17.5167,-91.9667,29.09,74,40,0.0,MX,1722731726
343,richmond,37.5538,-77.4603,24.99,84,100,4.63,US,1722731145
344,puerto deseado,-47.7503,-65.8938,3.54,88,100,5.64,AR,1722731869
345,myitkyina,25.3833,97.4,23.64,100,100,0.35,MM,1722731870
346,minusinsk,53.7103,91.6875,19.01,76,100,1.81,RU,1722731715
347,puerto escondido,15.85,-97.0667,26.3,87,100,2.11,MX,1722731873
348,bornos,36.8168,-5.7445,22.68,63,0,0.5,ES,1722731874
349,dhuusamarreeb,5.535,46.3861,22.74,76,100,7.84,SO,1722731875
350,praia,14.9215,-23.5087,26.25,77,90,2.75,CV,1722731876
351,bamusso,4.4591,8.9027,24.02,88,99,1.43,CM,1722731877
352,novyy turtkul',41.55,61.0167,19.95,26,3,2.48,UZ,1722731878
353,selfoss,63.9331,-20.9971,11.63,72,100,10.05,IS,1722731880
354,olyokminsk,60.3736,120.4264,20.43,51,100,3.9,RU,1722731881
355,conde,-7.2597,-34.9075,22.7,94,20,3.6,BR,1722731882
356,uturoa,-16.7333,-151.4333,24.64,70,88,6.9,PF,1722731883
357,xining,36.6167,101.7667,16.45,70,26,1.21,CN,1722731884
358,ostersund,63.1792,14.6357,13.25,96,100,2.06,SE,1722731886
359,palmas de monte alto,-14.2672,-43.1619,22.11,59,0,3.65,BR,1722731887
360,sabang,5.8933,95.3214,28.19,72,100,6.84,ID,1722731888
361,onega,63.9061,38.1404,11.98,97,29,1.95,RU,1722731889
362,muisne,0.6,-80.0333,24.01,86,99,3.89,EC,1722731890
363,altai,46.3722,96.2583,18.29,31,8,0.54,MN,1722731891
364,tahe,52.3333,124.7333,16.02,97,100,1.74,CN,1722731892
365,jindabyne,-36.4167,148.6333,8.1,55,99,0.89,AU,1722731894
366,lautoka,-17.6167,177.4667,26.92,69,75,5.66,FJ,1722731895
367,lorengau,-2.0226,147.2712,27.89,82,98,4.72,PG,1722731896
368,deqen,29.9618,90.7188,9.69,85,96,1.11,CN,1722731897
369,barabai,-2.5833,115.3833,28.63,63,15,0.45,ID,1722731898
370,viedma,-40.8135,-62.9967,11.38,31,5,6.14,AR,1722731900
371,changzhi,35.2089,111.7386,27.82,74,100,1.08,CN,1722731901
372,nyurba,63.2842,118.3319,19.63,42,99,1.52,RU,1722731902
373,thief river falls,48.1191,-96.1812,24.53,69,0,4.12,US,1722731903
374,naze,28.3667,129.4833,30.51,74,1,5.26,JP,1722731904
375,lospalos,-8.5186,127.0025,24.13,69,100,4.77,TL,1722731905
376,middlesboro,36.6084,-83.7166,24.0,94,75,0.0,US,1722731906
377,hasaki,35.7333,140.8333,32.38,69,7,2.0,JP,1722731908
378,cornelio procopio,-23.1811,-50.6467,19.33,43,21,1.82,BR,1722731909
379,coxim,-18.5067,-54.76,25.18,32,0,1.67,BR,1722731668
380,midvagur,62.0511,-7.1939,11.46,93,100,3.6,FO,1722731911
381,kingscliff,-28.2667,153.5667,19.87,55,29,5.14,AU,1722731912
382,tralee,52.2704,-9.7026,13.21,83,100,2.17,IE,1722731335
383,zhangatas,43.5667,69.75,22.98,30,0,2.65,KZ,1722731915
384,fale old settlement,-9.3852,-171.2468,27.87,77,100,6.12,TK,1722731917
385,corn island,12.1694,-83.0418,28.13,82,100,5.42,NI,1722731918
386,crucecita,-28.95,-58.9833,17.49,70,27,7.11,AR,1722731919
387,sake,-1.5736,29.045,17.02,68,15,0.4,CD,1722731920
388,gunjur,13.2019,-16.7339,26.04,94,75,0.0,GM,1722731922
389,mejit,10.2753,170.8646,28.26,77,4,3.88,MH,1722731923
390,les anglais,18.3054,-74.2197,26.29,82,11,2.18,HT,1722731924
391,queenstown,-31.8976,26.8753,13.8,29,71,3.8,ZA,1722731925
392,zhaozhou,45.6833,125.3167,22.58,98,100,3.99,CN,1722731926
393,sidhi,24.4167,81.8833,24.56,93,100,9.25,IN,1722731927
394,fomboni,-12.28,43.7425,24.89,65,93,4.15,KM,1722731929
395,port alfred,-33.5906,26.891,19.14,33,82,4.39,ZA,1722731344
396,tver,56.8619,35.8931,12.54,96,29,2.21,RU,1722731931
397,gwadar,25.1216,62.3254,27.78,84,93,2.59,PK,1722731932
398,sandnessjoen,66.0217,12.6316,17.29,80,9,6.6,NO,1722731934
399,jayuya,18.2186,-66.5916,25.69,91,17,1.07,PR,1722731936
400,alice springs,-23.7,133.8833,14.75,41,75,3.6,AU,1722731937
401,sicuani,-14.2694,-71.2261,10.87,45,1,2.59,PE,1722731938
402,belel,7.05,14.4333,15.27,95,100,1.33,CM,1722731939
403,moyamba,8.1667,-12.4333,22.94,98,100,1.34,SL,1722731940
404,hammerfest,70.6634,23.6821,13.25,76,0,1.54,NO,1722731906
405,galesong,-5.3166,119.3661,25.01,61,20,1.25,ID,1722731943
406,bereket,39.2446,55.5154,29.25,33,4,1.53,TM,1722731944
407,pagar alam,-4.0167,103.2667,23.3,82,62,0.39,ID,1722731945
408,sao mateus,-18.7161,-39.8589,20.82,92,21,2.79,BR,1722731946
409,constitucion,-35.3333,-72.4167,10.14,78,100,1.96,CL,1722731944
410,ormara,25.2088,64.6357,28.07,84,100,1.27,PK,1722731948
411,pahrump,36.2083,-115.9839,40.25,17,0,3.13,US,1722731950
412,severodvinsk,64.5635,39.8302,11.06,92,0,3.09,RU,1722731951
413,popondetta,-8.7537,148.2534,30.41,55,86,1.79,PG,1722731952
414,russkiy,43.0147,131.8642,20.92,87,100,8.22,RU,1722731953
415,veraval,20.9,70.3667,27.5,88,100,7.89,IN,1722731954
416,zliten,32.4674,14.5687,28.44,34,0,4.69,LY,1722731955
417,lagonegro,40.1283,15.7615,20.69,59,5,3.2,IT,1722731957
418,guerrero negro,27.9769,-114.0611,23.02,69,7,7.6,MX,1722731858
419,overland park,38.9822,-94.6708,32.84,51,0,2.06,US,1722731335
420,toliara,-23.35,43.6667,16.74,84,0,4.33,MG,1722731960
421,inhambane,-23.865,35.3833,19.49,86,0,2.68,MZ,1722731961
422,regina,50.4501,-104.6178,25.99,37,20,5.66,CA,1722731538
423,bocas del toro,9.3333,-82.25,25.59,83,99,2.37,PA,1722731964
424,ierapetra,35.01,25.7353,26.19,42,0,1.79,GR,1722731965
425,west bay,19.3667,-81.4167,30.04,70,40,3.09,KY,1722731764
426,east london,-33.0153,27.9116,19.51,29,86,5.03,ZA,1722731967
427,rauma,61.1272,21.5113,12.02,84,8,0.9,FI,1722731968
428,tamanrasset,22.785,5.5228,26.95,29,0,2.57,DZ,1722731969
429,stephenville,32.2207,-98.2023,35.09,29,0,1.54,US,1722731971
430,casino,-28.8667,153.05,18.09,54,60,0.74,AU,1722731972
431,miles city,46.4083,-105.8406,35.54,14,0,4.63,US,1722731861
432,belmonte,-15.8631,-38.8828,21.96,87,16,3.52,BR,1722731974
433,el granada,37.5027,-122.4694,29.27,73,20,10.29,US,1722731975
434,smithers,54.7804,-127.1743,29.18,15,0,4.12,CA,1722731976
435,pumiao,22.75,108.4833,28.22,81,42,3.79,CN,1722731978
436,machico,32.7,-16.7667,23.35,77,20,7.72,PT,1722731979
437,polyarnyy,69.1989,33.4478,9.2,92,12,2.64,RU,1722731980
438,new plymouth,-39.0667,174.0833,14.34,100,100,1.58,NZ,1722731981
439,prince rupert,54.3161,-130.3201,18.05,77,0,5.14,CA,1722731758
440,nelson bay,-32.7167,152.15,12.83,79,98,0.89,AU,1722731983
441,tutoia,-2.7619,-42.2744,25.97,81,0,5.25,BR,1722731985
442,kayes,14.0,-11.0,24.33,87,100,4.25,ML,1722731986
443,fort wellington,6.4,-57.6,26.61,79,100,2.7,GY,1722731987
444,merizo village,13.2658,144.6691,28.88,87,100,8.99,GU,1722731989
445,nan,18.8333,100.6667,24.01,100,40,1.54,TH,1722731990
446,sorso,40.8,8.5772,21.27,91,6,2.42,IT,1722731992
447,la ronge,55.1001,-105.2842,21.14,46,100,2.57,CA,1722731993
448,khenchela,35.4358,7.1433,20.39,59,0,1.87,DZ,1722731994
449,novyy urgal,51.0736,132.5642,24.01,46,100,0.65,RU,1722731995
450,novoanninskiy,50.5287,42.6747,19.2,60,100,1.81,RU,1722731996
451,gulu,2.7746,32.299,17.47,94,42,1.57,UG,1722731997
452,robertsport,6.7533,-11.3686,24.99,86,100,5.45,LR,1722731998
453,hamza,40.4264,71.4956,24.97,27,0,0.29,UZ,1722732001
454,qalat,32.1058,66.9083,25.98,53,27,2.01,AF,1722732002
455,varna,43.2167,27.9167,21.6,83,0,0.51,BG,1722732003
456,batumi,41.6416,41.6359,21.99,88,75,3.6,GE,1722732004
457,contamana,-7.3333,-75.0167,27.93,48,76,1.62,PE,1722732006
458,asheboro,35.7079,-79.8136,23.79,87,40,3.09,US,1722732007
459,khanty-mansiysk,61.0042,69.0019,17.06,100,1,0.0,RU,1722732008
460,mitchell,43.7094,-98.0298,33.99,52,0,4.63,US,1722731805
461,al kharijah,25.4514,30.5464,31.11,21,5,4.06,EG,1722731492
462,kill devil hills,36.0307,-75.676,28.88,82,0,8.23,US,1722731821
463,gazojak,41.1875,61.4036,27.18,24,41,3.5,TM,1722732013
464,berdigestyakh,62.0989,126.6992,21.12,34,44,2.67,RU,1722732014
465,hirara,24.8,125.2833,31.15,74,40,4.63,JP,1722732016
466,porto novo,6.4965,2.6036,23.39,92,39,2.64,BJ,1722732017
467,zalari,53.5584,102.5065,19.47,79,1,2.68,RU,1722732018
468,tsiombe,-25.3,45.4833,16.09,92,1,1.04,MG,1722732020
469,ixtapa,20.7,-105.2,27.9,94,100,2.06,MX,1722732021
470,sur,22.5667,59.5289,31.16,60,100,2.57,OM,1722731833
471,cranbrook,49.4999,-115.7688,31.91,25,75,6.69,CA,1722732023
472,luderitz,-26.6481,15.1594,13.13,91,90,4.02,NA,1722732024
473,azadshahr,34.7909,48.5707,18.27,32,0,1.03,IR,1722732025
474,santa elena de uairen,4.6167,-61.1333,19.86,91,100,1.72,VE,1722732027
475,orange walk,17.8333,-88.8333,24.5,96,74,2.01,BZ,1722732028
476,soyaux,45.65,0.2,16.49,77,0,1.03,FR,1722732029
477,vernon,50.2581,-119.2691,37.64,19,0,1.54,CA,1722731793
478,woolgoolga,-30.1106,153.2007,17.8,68,89,2.14,AU,1722732031
479,nova vicosa,-17.8919,-39.3719,22.43,87,1,4.57,BR,1722731549
480,belabo,4.9333,13.3,20.31,98,100,1.59,CM,1722732034
481,arrifes,37.7667,-25.7,21.14,83,20,2.57,PT,1722732036
482,al fintas,29.1739,48.1211,36.07,28,0,2.24,KW,1722732038
483,shakiso,5.75,38.9167,15.16,93,100,0.39,ET,1722732039
484,kamaishi,39.2667,141.8833,28.7,70,3,2.79,JP,1722731472
485,yeniseysk,58.4497,92.1703,17.31,67,0,2.47,RU,1722732041
486,saguenay,48.4168,-71.0657,21.06,90,100,1.03,CA,1722731868
487,riviere-du-loup,47.8304,-69.5342,20.15,94,100,3.09,CA,1722732043
488,monte mor,-22.9467,-47.3158,23.64,46,0,2.57,BR,1722732045
489,fonte boa,-2.4959,-66.2662,24.32,91,51,0.65,BR,1722732046
490,juneau,58.3019,-134.4197,19.0,82,75,5.14,US,1722732047
491,mugia,43.1041,-9.2179,18.28,89,1,3.87,ES,1722732048
492,koidu,8.4167,-10.8333,21.72,100,88,0.75,SL,1722732049
493,vila velha,-20.3297,-40.2925,21.08,97,100,1.34,BR,1722731789
494,bentiu,9.2333,29.8333,24.31,74,16,1.03,SS,1722732052
495,moyale,3.5167,39.0584,19.84,66,98,5.22,KE,1722732054
496,litchfield,41.7668,-73.2501,22.11,91,100,0.69,US,1722732055
497,tazacorte,28.629,-17.9293,22.54,78,0,7.2,ES,1722732056
498,magistral'nyy,56.1725,107.4458,17.7,80,99,0.93,RU,1722732058
499,san bernardo del viento,9.3533,-75.9524,27.24,81,99,3.52,CO,1722732059
500,burkburnett,34.0979,-98.5706,37.38,23,0,7.2,US,1722732060
501,itoman,26.1247,127.6694,32.21,76,20,6.17,JP,1722732061
502,ceelbuur,4.685,46.6176,23.04,82,55,7.3,SO,1722732063
503,holualoa,19.6228,-155.9522,28.08,75,0,6.69,US,1722731846
504,santiago de cuba,20.0247,-75.8219,29.06,79,40,2.06,CU,1722732065
505,brookings,44.3114,-96.7984,29.19,70,100,4.28,US,1722732067
506,weno,7.4515,151.8468,29.97,84,100,2.57,FM,1722732068
507,puerto san jose,13.9256,-90.8244,30.03,85,40,2.06,GT,1722732069
508,plesetsk,62.708,40.2916,12.34,99,37,1.95,RU,1722732070
509,tual,-5.6667,132.75,25.32,87,19,9.27,ID,1722731675
510,rongelap,11.1635,166.8941,28.46,75,5,2.62,MH,1722732072
511,carauari,-4.8828,-66.8958,24.02,85,54,0.93,BR,1722732073
512,kerikeri,-35.2268,173.9474,14.95,80,100,3.13,NZ,1722732075
513,namsos,64.4662,11.4957,17.95,72,21,4.63,NO,1722732076
514,choibalsan,48.0667,114.5,20.08,82,100,2.27,MN,1722732077
515,kirkwall,58.9848,-2.9587,12.03,87,75,1.54,GB,1722732078
516,zhanaozen,43.3,52.8,26.69,35,10,2.61,KZ,1722732074
517,figueres,42.2664,2.9616,24.21,66,0,3.13,ES,1722732081
518,barra de santo antonio,-9.4047,-35.5072,21.6,84,41,6.79,BR,1722732082
519,urangan,-25.3,152.9,19.4,59,100,2.49,AU,1722732083
520,aasiaat,68.7098,-52.8699,3.88,83,2,2.76,GL,1722732084
521,kas,36.2018,29.6377,27.45,63,0,1.35,TR,1722732086
522,belalcazar,2.6547,-75.9928,14.03,95,96,1.49,CO,1722732087
523,okha,53.5739,142.9478,17.31,52,2,1.92,RU,1722732088
524,ikwiriri,-7.9562,38.9716,19.3,95,5,0.44,TZ,1722732089
525,dschang,5.4456,10.055,16.87,98,100,1.2,CM,1722732091
526,fauske,67.2588,15.3918,18.58,70,13,2.58,NO,1722732093
527,promyshlennaya,54.9159,85.6385,18.53,93,69,4.34,RU,1722732095
528,madang,-5.2246,145.7966,30.38,63,12,2.41,PG,1722732096
529,plettenberg bay,-34.0527,23.3716,14.42,67,100,7.92,ZA,1722732097
530,cromer,52.9312,1.2989,13.41,77,100,2.48,GB,1722732098
531,fuglafjordur,62.244,-6.814,11.26,95,12,4.74,FO,1722732093
532,pokhara,28.2333,83.9833,21.75,96,100,0.21,NP,1722732101
533,tongchuanshi,35.0806,109.0897,26.01,67,19,1.69,CN,1722732102
534,sosnovka,56.255,51.2842,13.73,97,76,2.27,RU,1722732103
535,nagqu,31.5,92.0,5.94,77,10,1.2,CN,1722731718
536,princeville,45.7668,-61.2985,23.16,93,100,4.12,CA,1722732105
537,tomatlan,19.9333,-105.25,28.08,80,99,1.27,MX,1722732107
538,bahir dar,11.5936,37.3908,16.18,96,100,0.29,ET,1722732108
539,privas,44.5833,4.5,17.71,76,8,2.77,FR,1722732109
540,yantarnyy,54.8717,19.9381,13.92,75,71,4.16,RU,1722732110
541,randfontein,-26.1844,27.702,14.27,34,0,4.17,ZA,1722732112
542,dinga,32.6398,73.722,28.45,78,6,4.14,PK,1722732113
543,malaya vishera,58.8454,32.2222,13.09,97,100,1.47,RU,1722732114
544,sarkand,45.41,79.9186,26.46,27,0,2.15,KZ,1722732116
545,bodo,67.28,14.405,18.58,70,75,6.17,NO,1722732117
546,bonny,4.4522,7.1681,25.24,81,100,3.53,NG,1722732118
547,kiruna,67.8557,20.2251,12.51,94,100,1.03,SE,1722732074
548,ust'-ilimsk,58.0006,102.6619,13.88,90,100,1.69,RU,1722732120
549,huanuco,-9.9329,-76.2415,17.52,81,79,2.18,PE,1722731897
550,gunnedah,-30.9833,150.25,13.02,51,100,1.1,AU,1722732123
551,zelenogorskiy,55.0333,87.0,18.36,94,97,3.67,RU,1722732124
552,wenatchee,47.4235,-120.3103,36.14,28,0,5.14,US,1722732127
553,huruta,8.15,39.35,15.81,83,100,1.62,ET,1722732128
554,ust-tsilma,65.441,52.1498,15.32,71,81,4.5,RU,1722732130
555,saint-pierre,-21.3393,55.4781,18.09,63,0,3.6,RE,1722732131
556,macusani,-14.0833,-70.4333,1.69,92,22,1.59,PE,1722731635
557,korla,41.7597,86.1469,31.06,25,99,5.67,CN,1722732097
558,novodvinsk,64.4165,40.8122,10.86,98,17,2.1,RU,1722732135
559,castillos,-34.1667,-53.8333,11.06,93,15,3.02,UY,1722732136
560,monduli,-3.3,36.45,12.37,91,13,2.41,TZ,1722732137
561,saint-francois,46.4154,3.9054,17.6,88,0,1.03,FR,1722731620
562,selkirk,50.1436,-96.8845,22.82,62,0,4.02,CA,1722732085
563,cooper's town,26.8667,-77.5167,28.9,79,100,9.79,BS,1722732140
564,berrotaran,-32.451,-64.3887,8.92,38,100,0.14,AR,1722732142
565,oak island,33.9166,-78.1611,29.03,88,40,2.57,US,1722731869
566,saint-paul,-21.0096,55.2707,18.33,88,1,1.35,RE,1722732144
567,shima,24.4478,117.8111,31.01,74,6,0.94,CN,1722732145
568,maceio,-9.6658,-35.7353,21.69,100,100,3.09,BR,1722731895
569,palopo,-2.9996,120.1921,26.46,73,100,1.3,ID,1722732148
570,zharkent,44.1628,80.0,27.32,29,0,1.8,KZ,1722732075
571,sarmiento,-45.5882,-69.07,6.66,51,5,11.25,AR,1722732150
572,tidjikja,18.5564,-11.4271,26.74,75,100,4.79,MR,1722732151
573,swan hill,-35.3378,143.5544,12.83,57,100,2.31,AU,1722732152
